{"@id":"https://github.com/wjbfarrell/UK-Local-Studies-Libraries/blob/main/docs/data/uklslibraries.geojson","type":"FeatureCollection","@context":"https://geojson.org/schema/GeoJSON.json","features":[{"type":"Feature","properties":{"id":1,"name":"Barking and Dagenham Archives and Local Studies Service","local_authority":"Barking and Dagenham","country":"England","arcon_code":350,"address":"Archives and Local Studies Centre, Valence House Museum, Becontree Avenue, Dagenham, England, RM8 3HT","url":"https://ww2.lbbd.gov.uk/residents/leisure-libraries-and-museums/history-heritage-and-archives/","email":"localstudies@lbbd.gov.uk","local_studies_archives":"Both","notes":""},"geometry":{"type":"Point","coordinates":[0.134196,51.558308]}},{"type":"Feature","properties":{"id":2,"name":"Barnet Local Studies and Archives","local_authority":"Barnet","country":"England","arcon_code":77,"address":"The Burroughs, London, England, NW4 4BQ","url":"www.barnet.gov.uk/libraries/local-studies-and-archives","email":"library.archvies@barnet.gov.uk","local_studies_archives":"Both","notes":""},"geometry":{"type":"Point","coordinates":[-2.485284242,53.74938065]}},{"type":"Feature","properties":{"id":3,"name":"Barnsley Archive and Local Studies Department","local_authority":"Barnsley","country":"England","arcon_code":196,"address":"Town Hall, Church Street, Barnsley, England, S70 2TA","url":"www.experience-barnsey.com/arcihves-and-discoverycentre","email":"archives@barnsley.gov.uk","local_studies_archives":"Both","notes":"Plus museum"},"geometry":{"type":"Point","coordinates":[-1.482728705,53.55422085]}},{"type":"Feature","properties":{"id":4,"name":"Bath Record Office: Local Studies","local_authority":"Bath and NE Somerset","country":"England","arcon_code":256,"address":"Bath Record Office: Archives & Local Studies, The Guildhall, High Street, Bath, England, BA1 5AW","url":"www.batharchives.co.uk","email":"archives@bathnes.gov.uk","local_studies_archives":"Both","notes":"Local Studies and Archive collections joined together in 2017."},"geometry":{"type":"Point","coordinates":[-2.358842,51.381893]}},{"type":"Feature","properties":{"id":5,"name":"Bedfordshire Heritage Library","local_authority":"Bedford","country":"England","arcon_code":"","address":"Central Library, Harpur Street, Bedford, MK40 1PG","url":"http://virtual-library.culturalservices.net/webingres/bedfordshire/vlib/0.local_studies/beds_heritage_library.htm","email":"Auto email","local_studies_archives":"Local Studies","notes":""},"geometry":{"type":"Point","coordinates":[-0.468046384,52.1364382]}},{"type":"Feature","properties":{"id":6,"name":"Bexley Local Studies and Archive Centre","local_authority":"Bexley","country":"England","arcon_code":79,"address":"Central Library, Townley Road, Bexleyheath, England, DA6 7HJ","url":"www.bexley.gov.uk/service/archives-and-local-history","email":"archives@bexley.gov.uk","local_studies_archives":"Both","notes":""},"geometry":{"type":"Point","coordinates":[0.143677608,51.45585595]}},{"type":"Feature","properties":{"id":7,"name":"The Library of Birmingham - Archives and Heritage","local_authority":"Birmingham","country":"England","arcon_code":"","address":"Library of Birmingham, Centenary Square, Broad Street, Birmingham, B1 2ND","url":"https://www.birmingham.gov.uk/info/20087/libraries","email":"archives.heritage@birmingham.gov.uk","local_studies_archives":"Both","notes":""},"geometry":{"type":"Point","coordinates":[-1.908478277,52.47968625]}},{"type":"Feature","properties":{"id":8,"name":"Blackburn Libraries","local_authority":"Blackburn with Darwen","country":"England","arcon_code":"","address":"Blackburn Central Library, Town Hall Street, Blackburn, BB2 1AG","url":"www.blackburn.gov.uk/pages/localhistory.aspx","email":"library@blackburn.gov.uk","local_studies_archives":"Local Studies","notes":""},"geometry":{"type":"Point","coordinates":[-2.485284242,53.74938065]}},{"type":"Feature","properties":{"id":9,"name":"Blackpool History Centre","local_authority":"Blackpool","country":"England","arcon_code":"","address":"The History Centre,First floor, Blackpool Central Library,Queen Street, Blackpool,  FY1 1PX","url":"www.blackpool.gov.uk/residents/libraries-arts-and-heritage/collection-and-archive/history.aspx","email":"historycentre@blackpool.gov.uk","local_studies_archives":"Local Studies","notes":""},"geometry":{"type":"Point","coordinates":[-3.053113654,53.8206208]}},{"type":"Feature","properties":{"id":10,"name":"Bolton Archives and Local Studies, Bolton History Centre","local_authority":"Bolton","country":"England","arcon_code":125,"address":"Bolton Archives and Local Studies, Bolton History Centre, Le Mans Crescent, Bolton, BL1 1SE","url":"www.bolton.gov.uk/discover-library/local-history","email":"archives@bolton.gov.uk","local_studies_archives":"Both","notes":""},"geometry":{"type":"Point","coordinates":[-2.431135,53.578495]}},{"type":"Feature","properties":{"id":12,"name":"Bracknell Central library","local_authority":"Bracknell Forest","country":"England","arcon_code":"","address":"Bracknell Library, The Avenue,Bracknell,RG12 1BH","url":"https://www.bracknell-forest.gov.uk/libraries/library-services/local-and-family-history/local-history-photographs","email":"","local_studies_archives":"Local Studies","notes":""},"geometry":{"type":"Point","coordinates":[-0.74790455,51.41788625]}},{"type":"Feature","properties":{"id":13,"name":"Bradford Local Studies Library","local_authority":"Bradford","country":"England","arcon_code":2750,"address":"Local Studies Library, Margaret McMillan Tower, Princes Way, Bradford. BD1 11N","url":"","email":"","local_studies_archives":"Local Studies","notes":""},"geometry":{"type":"Point","coordinates":[-1.754753,53.790435]}},{"type":"Feature","properties":{"id":14,"name":"Keighley Local Studies Library","local_authority":"Bradford","country":"England","arcon_code":538,"address":"Keighley Library, North Street, Keighley, BD21 3SX","url":"https://www.bradford.gov.uk/libraries/find-your-local-library/keighley-local-studies-library/","email":"keighleylocalstudies@bradford.gov.uk","local_studies_archives":"","notes":""},"geometry":{"type":"Point","coordinates":[-1.909973847,53.86824225]}},{"type":"Feature","properties":{"id":15,"name":"Brent Museum and Archives","local_authority":"Brent","country":"England","arcon_code":"","address":"The Library at Willesden Green, 95 High Road, Willesden, London, NW10 2SF","url":"","email":"museum.archives@brent.gov.uk","local_studies_archives":"Both","notes":"Plus museum service"},"geometry":{"type":"Point","coordinates":[-0.228991902,51.54682515]}},{"type":"Feature","properties":{"id":16,"name":"The Keep - Brighton and Hove","local_authority":"Brighton and Hove","country":"England","arcon_code":3091,"address":"The Keep, Wollards Way ,Brighton, BN1 9BP","url":"https://www.thekeep.info/brighton-hove/","email":"thekeep@eastsussex.gov.uk","local_studies_archives":"Both","notes":"Also includes Sussex University Special Collections"},"geometry":{"type":"Point","coordinates":[-0.097333,50.857777]}},{"type":"Feature","properties":{"id":17,"name":"Bristol Reference Library","local_authority":"Bristol","country":"England","arcon_code":"","address":"Central Library, College Green, Bristol, BS1 5TL","url":"https://www.bristol.gov.uk/libraries-archives/local-history","email":"refandinfo@bristol.gov.uk","local_studies_archives":"Local Studies","notes":""},"geometry":{"type":"Point","coordinates":[-2.601874,51.451626]}},{"type":"Feature","properties":{"id":18,"name":"Bromley Central Library","local_authority":"Bromley","country":"England","arcon_code":"","address":"Central Library, High Street, Bromley, BR1 1EX","url":"www.bromley.gov.uk/historiccollections","email":"historic.collections@GLL.org","local_studies_archives":"Both","notes":""},"geometry":{"type":"Point","coordinates":[0.0146503,51.4036103]}},{"type":"Feature","properties":{"id":19,"name":"Centre for Buckinghamshire Studies","local_authority":"Buckinghamshire","country":"England","arcon_code":"","address":"Centre for Buckinghamshire Studies, County Hall, Walton Street, Aylesbury, HP20 1UU","url":"www.buckscc.gov.uk/services/culture-and-leisure/centre-for-buckinghamshire-studies/","email":"archives@buckscc.gov.uk","local_studies_archives":"Both","notes":""},"geometry":{"type":"Point","coordinates":[-0.81225,51.814878]}},{"type":"Feature","properties":{"id":20,"name":"Bury Archives","local_authority":"Bury","country":"England","arcon_code":"","address":"Bury Archives, Moss Street, Bury, BL9 0DR","url":"www.bury.gov.uk/index.aspx?articleid=10620","email":"auto email","local_studies_archives":"Both","notes":""},"geometry":{"type":"Point","coordinates":[-2.299082,53.591906]}},{"type":"Feature","properties":{"id":21,"name":"Central Library & Archive","local_authority":"Calderdale","country":"England","arcon_code":"","address":"Central Library and Archive, Square Road, Halifax, HX1 1QG","url":"www.calderdale.gov.uk/v2/residents/leisure-and-culture/local-history-and-heritage/local-studies-and-family-history-libraries","email":"reference.library@calderdale.gov.uk","local_studies_archives":"Local Studies","notes":"West Yorkshire Archives also has a base in the library"},"geometry":{"type":"Point","coordinates":[-1.855961495,53.72199245]}},{"type":"Feature","properties":{"id":22,"name":"Cambridgeshire Collection - Cambridge Central Library","local_authority":"Cambridgeshire","country":"England","arcon_code":"","address":"Cambridge Central Library, 7 Lion Yard, Cambridge, CB2 3QD","url":"https://www.cambridgeshire.gov.uk/residents/libraries-leisure-&-culture/local-studies/cambridgeshire-collection/","email":"Cambridgeshire.collection@cambridgeshire.gov.uk","local_studies_archives":"Local Studies","notes":""},"geometry":{"type":"Point","coordinates":[0.120497,52.204518]}},{"type":"Feature","properties":{"id":23,"name":"Huntingdon Library and Archive","local_authority":"Cambridgeshire","country":"England","arcon_code":"","address":"Princes Street, Huntingdon, PE29 3PA","url":"http://www.cambridgeshire.gov.uk/info/20002/libraries_leisure_and_culture","email":"Localstudies.hunts@cambridgeshire.gov.uk","local_studies_archives":"Local Studies","notes":""},"geometry":{"type":"Point","coordinates":[-0.184461519,52.3296243]}},{"type":"Feature","properties":{"id":24,"name":"Wisbech Library","local_authority":"Cambridgeshire","country":"England","arcon_code":"","address":"Fenland Collection, 5 Ely Place, Wisbech, PE13 1EU","url":"https://www.cambridgeshire.gov.uk/residents/libraries-leisure-&-culture/local-studies/fenland-collection/","email":"Localstudies.fenland@cambridgeshire.gov.uk","local_studies_archives":"Local Studies","notes":""},"geometry":{"type":"Point","coordinates":[0.161059759,52.66434645]}},{"type":"Feature","properties":{"id":25,"name":"Camden Local Studies and Archive Centre","local_authority":"Camden","country":"England","arcon_code":784,"address":"Holborn Library, 32-38 Theobalds Road, London, WC1X 8PA","url":"https://www.camden.gov.uk/local-studies-archives-centre","email":"localstudies@camden.gov.uk","local_studies_archives":"Both","notes":""},"geometry":{"type":"Point","coordinates":[-0.1156142,51.5210756]}},{"type":"Feature","properties":{"id":27,"name":"Cheshire Archives and Local Studies","local_authority":"Cheshire East","country":"England","arcon_code":17,"address":"Cheshire Record Office Duke Street, Chester, England, CH1 1RL","url":"http://www.cheshirearchives.org.uk/","email":"recordoffice@cheshiresharedservices.gov.uk","local_studies_archives":"Both","notes":""},"geometry":{"type":"Point","coordinates":[-2.88851464,53.18703475]}},{"type":"Feature","properties":{"id":29,"name":"Guildhall Library","local_authority":"City of London","country":"England","arcon_code":76,"address":"Aldermanbury, London EC2V, 7HH","url":"https://www.cityoflondon.gov.uk/things-to-do/guildhall-library/Pages/default.aspx","email":"guildhall.library@cityoflondon.gov.uk","local_studies_archives":"Both","notes":"Manuscripts managed by London Metropolitan Archives."},"geometry":{"type":"Point","coordinates":[-0.0925982,51.5161758]}},{"type":"Feature","properties":{"id":30,"name":"Kresen Kernow (Cornwall Centre)","local_authority":"Cornwall","country":"England","arcon_code":21,"address":"Kresen Kernow, Little Vauxhall, Redruth TR15 1AS","url":"https://kresenkernow.org/","email":"kresenkernow@cornwall.gov.uk","local_studies_archives":"Both","notes":""},"geometry":{"type":"Point","coordinates":[-5.234333339,50.2350154]}},{"type":"Feature","properties":{"id":31,"name":"Coventry History Centre","local_authority":"Coventry","country":"England","arcon_code":144,"address":"Coventry History Centre, Jordan Well, Coventry, CV1 5QP","url":"https://www.theherbert.org/collections/history_centre.aspx","email":"historycentre@theherbert.org","local_studies_archives":"Both","notes":""},"geometry":{"type":"Point","coordinates":[-1.506102,52.407096]}},{"type":"Feature","properties":{"id":32,"name":"Croydon Museum and Archive Service","local_authority":"Croydon","country":"England","arcon_code":352,"address":"Croydon Clocktower, Katharine Street, Croydon, CR9 1ET","url":"www.croydon.gov.uk/leisure/archives/lslibrary","email":"museum@croydon.gov.uk","local_studies_archives":"Both","notes":""},"geometry":{"type":"Point","coordinates":[-0.099460694,51.37204165]}},{"type":"Feature","properties":{"id":33,"name":"Cumbria Archive and Local Studies Centre, Barrow","local_authority":"Cumbria","country":"England","arcon_code":1831,"address":"Cumbria Archive and Local Studies Centre, Ramsden Square, Barrow-in-Furness, England, LA14 1LL","url":"https://www.cumbria.gov.uk/archives/archivecentres/balsc.asp","email":"barrow.archives@cumbria.gov.uk","local_studies_archives":"Both","notes":""},"geometry":{"type":"Point","coordinates":[-3.231623,54.114388]}},{"type":"Feature","properties":{"id":34,"name":"Cumbria Archive and Local Studies Centre, Whitehaven","local_authority":"Cumbria","country":"England","arcon_code":1831,"address":"Scotch Street, Whitehaven, England, CA28 7NL","url":"https://www.cumbria.gov.uk/archives/archivecentres/whalsc.asp","email":"whitehaven.archives@cumbria.gov.uk","local_studies_archives":"Both","notes":""},"geometry":{"type":"Point","coordinates":[-3.585257,54.547861]}},{"type":"Feature","properties":{"id":35,"name":"Darlington Centre for Local Studies","local_authority":"Darlington","country":"England","arcon_code":"","address":"Darlington Library, Crown Street, Darlington, DL1 1ND","url":"https://www2.darlington.gov.uk/web/arena/local-and-family-history","email":"local.studies@darlington.gov.uk","local_studies_archives":"Local Studies","notes":""},"geometry":{"type":"Point","coordinates":[-1.5527811,54.5262241]}},{"type":"Feature","properties":{"id":36,"name":"Derby Local Studies and Family History Library","local_authority":"Derby","country":"England","arcon_code":288,"address":"Riverside Chambers, Full Street, Derby, DE1 3AF","url":"https://www.inderby.org.uk/libraries/our-libraries/derby-local-studies-and-family-history-library/","email":"localstudies.library@derby.gov.uk","local_studies_archives":"Local Studies","notes":""},"geometry":{"type":"Point","coordinates":[-1.474789,52.9239745]}},{"type":"Feature","properties":{"id":37,"name":"Derbyshire Local Studies Library","local_authority":"Derbyshire","country":"England","arcon_code":1944,"address":"Derbyshire Record Office, New Street, Matlock, DE4 3FE","url":"https://www.derbyshire.gov.uk/leisure/record-office/derbyshire-record-office.aspx","email":"record.office@derbyshire.gov.uk","local_studies_archives":"Both","notes":""},"geometry":{"type":"Point","coordinates":[-1.551611,53.140255]}},{"type":"Feature","properties":{"id":38,"name":"Devon Archives and Local Studies Service","local_authority":"Devon","country":"England","arcon_code":27,"address":"Devon Heritage Centre Great Moor House Bittern Road, Exeter, England, EX2 7NL","url":"https://swheritage.org.uk/devon-archives/","email":"devonarchives@swheritage.org.uk","local_studies_archives":"Both","notes":""},"geometry":{"type":"Point","coordinates":[-3.469146,50.724666]}},{"type":"Feature","properties":{"id":39,"name":"Doncaster Local Studies Library","local_authority":"Doncaster","country":"England","arcon_code":"","address":"Central Library, Waterdale, Doncaster, DN1 3JE","url":"https://library.doncaster.gov.uk/web/arena/local-studies","email":"central.localhistory@doncaster.gov.uk","local_studies_archives":"Local Studies","notes":""},"geometry":{"type":"Point","coordinates":[-1.132068716,53.5205544]}},{"type":"Feature","properties":{"id":40,"name":"Dorset History Centre","local_authority":"Dorset","country":"England","arcon_code":31,"address":"Bridport Road, Dorchester, Dorset, DT1 1RP","url":"https://www.dorsetcouncil.gov.uk/libraries-history-culture/dorset-history-centre/dorset-history-centre.aspx","email":"archives@dorsetcc.gov.uk","local_studies_archives":"Both","notes":""},"geometry":{"type":"Point","coordinates":[-2.44518469,50.7146052]}},{"type":"Feature","properties":{"id":41,"name":"Dudley Archives and Local History Service","local_authority":"Dudley","country":"England","arcon_code":145,"address":"Archives & Local History Centre, Tipton Road, Dudley, West Midlands, DY1 4SQ","url":"https://www.dudley.gov.uk/things-to-do/dudley-borough-libraries/archives-and-local-history-service/","email":"dudley.archives@gll.org","local_studies_archives":"Both","notes":""},"geometry":{"type":"Point","coordinates":[-2.07481825,52.5188322]}},{"type":"Feature","properties":{"id":42,"name":"Durham Clayport Library","local_authority":"Durham","country":"England","arcon_code":"","address":"Millennium Place, Durham, County Durham, DH1 1WA","url":"https://www.durham.gov.uk/article/2070/Discover-local-history-in-your-library","email":"DurhamClayportLibrary@durham.gov.uk","local_studies_archives":"Local Studies","notes":""},"geometry":{"type":"Point","coordinates":[-1.5751952,54.7783519]}},{"type":"Feature","properties":{"id":43,"name":"Ealing Local History Centre","local_authority":"Ealing","country":"England","arcon_code":1158,"address":"West Ealing Library, Melbourne Avenue, West Ealing, London, England, W13 9BT","url":"https://www.ealing.gov.uk/info/201244/local_history_centre","email":"LocalHistoryLibrary@ealing.gov.uk","local_studies_archives":"Both","notes":""},"geometry":{"type":"Point","coordinates":[-0.3245923,51.5094007]}},{"type":"Feature","properties":{"id":44,"name":"East Riding of Yorkshire Archives and Local Studies Service","local_authority":"East Riding of Yorkshire","country":"England","arcon_code":47,"address":"The Treasure House, Champney Road, Beverley, England, HU17 9BA","url":"https://www.eastriding.gov.uk/leisure/archives-family-and-local-history/","email":"archives.service@eastriding.gov.uk","local_studies_archives":"Both","notes":""},"geometry":{"type":"Point","coordinates":[-0.42899,53.840452]}},{"type":"Feature","properties":{"id":45,"name":"Hull History Centre","local_authority":"Hull City Council","country":"England","arcon_code":322,"address":"Hull History Centre, Worship Street, Hull, England, HU2 8BG","url":"http://www.hullhistorycentre.org.uk/","email":"hullhistorycentre@hullcc.gov.uk","local_studies_archives":"Both","notes":""},"geometry":{"type":"Point","coordinates":[-0.336646,53.747664]}},{"type":"Feature","properties":{"id":46,"name":"The Keep - East Sussex local and family history collections","local_authority":"East Sussex","country":"England","arcon_code":353,"address":"Woollards Way, Brighton, BN1 9BP","url":"http://www.thekeep.info/about_us/","email":"thekeep@eastsussex.gov.uk","local_studies_archives":"Archive","notes":""},"geometry":{"type":"Point","coordinates":[-0.097676377,50.8578211]}},{"type":"Feature","properties":{"id":47,"name":"Enfield Local Studies Library and Archive (Dugdale Centre)","local_authority":"Enfield","country":"England","arcon_code":"","address":"First Floor, Dugdale, 39 London Road, Enfield, England, EN2 6DS","url":"https://www.dugdalecentre.co.uk/page/local-studies-library-and-archive/","email":"local.history@enfield.gov.uk","local_studies_archives":"Both","notes":""},"geometry":{"type":"Point","coordinates":[-0.080262,51.650374]}},{"type":"Feature","properties":{"id":48,"name":"Essex Record Office","local_authority":"Essex","country":"England","arcon_code":185,"address":"Wharf Road, Chelmsford, Essex, CM2 6YT","url":"https://www.essexrecordoffice.co.uk/","email":"ero.enquiry@essex.gov.uk","local_studies_archives":"Archive","notes":""},"geometry":{"type":"Point","coordinates":[0.481046705,51.73019785]}},{"type":"Feature","properties":{"id":49,"name":"Gateshead Central Library, Local Studies","local_authority":"Gateshead","country":"England","arcon_code":"","address":"Prince Consort Road, Gateshead, England, NE8 4LN","url":"http://www.gatesheadlocalstudies.com/","email":"libraries@gateshead.gov.uk","local_studies_archives":"Both","notes":""},"geometry":{"type":"Point","coordinates":[-1.6014292,54.9513419]}},{"type":"Feature","properties":{"id":50,"name":"Gloucestershire Archives","local_authority":"Gloucestershire","country":"England","arcon_code":"","address":"Gloucestershire Heritage Centre, Clarence Row, Alvin Street, Gloucester, GL1 3DW","url":"https://www.gloucestershire.gov.uk/archives","email":"archives@gloucestershire.gov.uk","local_studies_archives":"Both","notes":""},"geometry":{"type":"Point","coordinates":[-2.241328,51.86868]}},{"type":"Feature","properties":{"id":52,"name":"Royal Greenwich Archives","local_authority":"Greenwich","country":"England","arcon_code":"","address":"Charlton House,Charlton Road,London,SE7 8RE","url":"https://www.royalgreenwich.gov.uk/info/200228/local_history_and_heritage/251/local_history_and_archives","email":"info@rght.org.uk. Must email in advance before visiting","local_studies_archives":"Both","notes":""},"geometry":{"type":"Point","coordinates":[0.0359217,51.4808642]}},{"type":"Feature","properties":{"id":53,"name":"Hackney Archives and Local History","local_authority":"Hackney","country":"England","arcon_code":"","address":"Dalston CLR James Library, Dalston Square, Hackney, London, E8 3BQ","url":"https://hackney.gov.uk/archives","email":"archives@hackney.gov.uk","local_studies_archives":"Both","notes":""},"geometry":{"type":"Point","coordinates":[-0.07391345,51.54604345]}},{"type":"Feature","properties":{"id":54,"name":"Halton Libraries","local_authority":"Halton","country":"England","arcon_code":"","address":"Halton Lea Library, Halton, Runcorn, Cheshire, WA7 2PF and Widnes Library,Victoria Square, Widnes, Cheshire, WA8 7QT","url":"https://library.haltonbc.info/community-family-history/","email":"haltonlea.library@halton.gov.uk     and        widnes.library@halton.gov.uk","local_studies_archives":"Local Studies","notes":""},"geometry":{"type":"Point","coordinates":[-2.697899,53.328873]}},{"type":"Feature","properties":{"id":55,"name":"Hammersmith and Fulham Archives and Local History Centre","local_authority":"Hammersmith and Fulham","country":"England","arcon_code":85,"address":"Hammersmith and Fulham Archives and Local History Centre, 1st Floor, Hammersmith Library, Shepherds Bush Road, London, W6 7AT","url":"https://www.lbhf.gov.uk/libraries/local-studies-and-archives","email":"archives@lbhf.gov.uk","local_studies_archives":"Both","notes":""},"geometry":{"type":"Point","coordinates":[-0.223631787,51.4945917]}},{"type":"Feature","properties":{"id":56,"name":"Hampshire Archives and Local Studies","local_authority":"Hampshire","country":"England","arcon_code":41,"address":"Hampshire Record Office, Sussex Street, Winchester, England, SO23 8TH","url":"https://www.hants.gov.uk/librariesandarchives/archives","email":"Online form:   https://forms.hants.gov.uk/en/AchieveForms/?form_uri=sandbox-publish://AF-Process-03882281-c82a-41b9-ad9d-bce23a0ecc40/AF-Stage-7ff271a4-3049-4297-8237-312ebc8dbcc2/definition.json&redirectlink=/en&cancelRedirectLink=/en","local_studies_archives":"Both","notes":""},"geometry":{"type":"Point","coordinates":[-1.318567728,51.0664856]}},{"type":"Feature","properties":{"id":57,"name":"Haringey Archive & Local History Collections","local_authority":"Haringey","country":"England","arcon_code":"","address":"Haringey Archives Service, Bruce Castle Museum, Lordship Lane, Tottenham, N17 8NU.","url":"www.haringey.gov.uk/libraries-sport-and-leisure/culture-and-entertainment/visiting-haringey/haringey-archive-and-local-history#localhistory","email":"museum.services@haringey.gov.uk","local_studies_archives":"Both","notes":""},"geometry":{"type":"Point","coordinates":[-0.075462,51.599]}},{"type":"Feature","properties":{"id":58,"name":"Harrow Local History Centre","local_authority":"Harrow","country":"England","arcon_code":"","address":"Headstone Manor and Museum, Pinner View, Harrow, HA2 6PX","url":"https://headstonemanor.org/","email":"info@headstonemanor.org","local_studies_archives":"Local Studies","notes":""},"geometry":{"type":"Point","coordinates":[-0.354433,51.594534]}},{"type":"Feature","properties":{"id":59,"name":"Hartlepool Local Studies Collection","local_authority":"Hartlepool","country":"England","arcon_code":"","address":"Information & Reference Department, Community Hub Central, 124 York Road, Hartlepool, TS26 9DE","url":"https://www.hartlepool.gov.uk/info/20012/libraries/183/family_and_local_history_library","email":"infodesk@hartlepool.gov.uk","local_studies_archives":"Local Studies","notes":""},"geometry":{"type":"Point","coordinates":[-1.216599,54.683574]}},{"type":"Feature","properties":{"id":60,"name":"Havering Local Studies and Family History Centre","local_authority":"Havering","country":"England","arcon_code":1159,"address":"Central Library, St Edward's Way, Romford, RM1 3AR","url":"https://llc.ent.sirsidynix.net.uk/client/en_GB/havering/?rm=COLLECTION+OVE0%7C%7C%7C1%7C%7C%7C0%7C%7C%7Ctrue","email":"localstudies@havering.gov.uk","local_studies_archives":"Local Studies","notes":""},"geometry":{"type":"Point","coordinates":[0.183814,51.580625]}},{"type":"Feature","properties":{"id":61,"name":"Herefordshire Archive and Records Centre","local_authority":"Herefordshire","country":"England","arcon_code":"","address":"Fir Tree Lane, Hereford, HR2 6LA","url":"https://www.herefordshire.gov.uk/archives","email":"archives@herefordshire.gov.uk","local_studies_archives":"Both","notes":""},"geometry":{"type":"Point","coordinates":[-2.687343,52.038398]}},{"type":"Feature","properties":{"id":62,"name":"Hertfordshire Archives and Local Studies","local_authority":"Hertfordshire","country":"England","arcon_code":46,"address":"Register Office Block, County Hall, Pegs Lane, Hertford, SG13 8EJ","url":"www.hertfordshire.gov.uk/libraries","email":"hals.enquiries@hertfordshire.gov.uk","local_studies_archives":"Both","notes":""},"geometry":{"type":"Point","coordinates":[-0.080192,51.791098]}},{"type":"Feature","properties":{"id":63,"name":"Hillingdon Local Studies, Archives and Museums Service","local_authority":"Hillingdon","country":"England","arcon_code":354,"address":"Level 6, Uxbridge Library, 14-15 High Street, Uxbridge, UB8 1HD","url":"www.hillingdon.gov.uk/history","email":"archives@hillingdon.gov.uk","local_studies_archives":"Both","notes":""},"geometry":{"type":"Point","coordinates":[-0.478085,51.5454]}},{"type":"Feature","properties":{"id":64,"name":"Hounslow and Feltham Local Studies Service","local_authority":"Hounslow","country":"England","arcon_code":356,"address":"Feltham Library, The Centre, High Street, Feltham, TW13 4GU","url":"www.hounslow.gov.uk/info/20136/other_library_services/1692/local_history_and_archives","email":"localstudies@hounslow.gov.uk","local_studies_archives":"Local Studies","notes":""},"geometry":{"type":"Point","coordinates":[-0.410965,51.446437]}},{"type":"Feature","properties":{"id":65,"name":"Chiswick and Brentford Local Studies and Archives Collection","local_authority":"Hounslow","country":"England","arcon_code":348,"address":"Chiswick Library, Duke’s Avenue, Chiswick, London, W4 2AB","url":"www.hounslow.gov.uk/info/20136/other_library_services/1692/local_history_and_archives","email":"localstudies@hounslow.gov.uk","local_studies_archives":"Local Studies","notes":""},"geometry":{"type":"Point","coordinates":[-0.2608975,51.4918692]}},{"type":"Feature","properties":{"id":66,"name":"Isle of Wight Local Studies Collection","local_authority":"Isle of Wight","country":"England","arcon_code":"","address":"Record Office, 26 Hillside, Newport, PO30 2EB","url":"www.iow.gov.uk/Residents/Libraries-Cultural-and-Heritage/Records-Office/Local-History/Local-Studies-Collection/","email":"record.office@iow.gov.uk","local_studies_archives":"Both","notes":"Local history collection is mainly held off site in storage - accessed via Isle of Wight Archives www.iow.gov.uk/Residents/Libraries-Cultural-and-Heritage/Records-Office/Local-History/Local-Studies-Collection/"},"geometry":{"type":"Point","coordinates":[-1.288882,50.703058]}},{"type":"Feature","properties":{"id":67,"name":"Islington Local History Centre","local_authority":"Islington","country":"England","arcon_code":1032,"address":"Islington Local History Centre, Finsbury Library, 245 St John St, London, EC1V 4NB","url":"www.islington.gov.uk/libraries-arts-and-heritage/heritage/local-history-centre","email":"local.history@islington.gov.uk","local_studies_archives":"Local Studies","notes":""},"geometry":{"type":"Point","coordinates":[-0.104372957,51.5263135]}},{"type":"Feature","properties":{"id":68,"name":"Kensington and Chelsea Local Studies","local_authority":"Kensington and Chelsea","country":"England","arcon_code":"","address":"Kensington Central Library, 12 Phillimore Walk, London, W8 7RX","url":"https://www.rbkc.gov.uk/libraries/local-studies-and-archives","email":"centrallocalenquiries@rbkc.gov.uk","local_studies_archives":"Both","notes":""},"geometry":{"type":"Point","coordinates":[-0.19426393,51.5014375]}},{"type":"Feature","properties":{"id":69,"name":"Kent History and Library Centre","local_authority":"Kent","country":"England","arcon_code":"","address":"James Whatman Way, Maidstone, ME14 1LQ","url":"https://www.kentarchives.org.uk/","email":"historyandlibrarycentre@kent.gov.uk","local_studies_archives":"Both.","notes":""},"geometry":{"type":"Point","coordinates":[0.517952197,51.28025495]}},{"type":"Feature","properties":{"id":70,"name":"Hull History Centre","local_authority":"Kingston upon Hull","country":"England","arcon_code":"","address":"Hull History Centre,Worship Street,Hull, HU2 8BG","url":"http://www.hullhistorycentre.org.uk/visit-us/our-facilities/local-studies-library.aspx","email":"hullhistorycentre@hcandl.co.uk","local_studies_archives":"Both","notes":""},"geometry":{"type":"Point","coordinates":[-0.336646,53.747664]}},{"type":"Feature","properties":{"id":71,"name":"Kingston History Centre","local_authority":"Kingston upon Thames","country":"England","arcon_code":177,"address":"Guildhall, High Street, Kingston-upon-Thames, KT1 1EU","url":"https://www.kingston.gov.uk/info/200239/museum_and_history_centre/548/visit_kingston_history_centre","email":"local.history@kingston.gov.uk","local_studies_archives":"Both","notes":""},"geometry":{"type":"Point","coordinates":[-0.306068,51.407553]}},{"type":"Feature","properties":{"id":72,"name":"Huddersfield Local Studies Library","local_authority":"Kirklees","country":"England","arcon_code":"","address":"Huddersfield Library and Art Gallery, Princess Alexandra Walk, Huddersfield, West Yorkshire, HD1 2SU","url":"https://www.kirklees.gov.uk/beta/libraries/local-studies-and-resources.aspx","email":"huddersfield.localhistory@kirklees.gov.uk","local_studies_archives":"Both","notes":""},"geometry":{"type":"Point","coordinates":[-1.781678,53.644289]}},{"type":"Feature","properties":{"id":73,"name":"The ARK: Archive Resource for Knowsley","local_authority":"Knowsley","country":"England","arcon_code":1076,"address":"The ARK, The Kirkby Centre, Norwich Way, Kirkby, L32 8RR","url":"http://archives.knowsley.gov.uk","email":"infoheritage@knowsley.gov.uk","local_studies_archives":"Both","notes":""},"geometry":{"type":"Point","coordinates":[-2.889871,53.481952]}},{"type":"Feature","properties":{"id":74,"name":"Lambeth Archives","local_authority":"Lambeth","country":"England","arcon_code":88,"address":"Minet Library, 52 Knatchbull Road, London, SE5 9QY","url":"https://www.lambeth.gov.uk/places/lambeth-archives","email":"archives@lambeth.gov.uk","local_studies_archives":"Both","notes":""},"geometry":{"type":"Point","coordinates":[-0.105294626,51.47138705]}},{"type":"Feature","properties":{"id":75,"name":"Lancaster Central Library","local_authority":"Lancashire","country":"England","arcon_code":"","address":"Market Square, Lancaster, Lancashire, LA1 1HY","url":"https://www.lancashire.gov.uk/libraries-and-archives/libraries/find-a-library/lancaster-central-library/","email":"lancaster.library@lancashire.gov.uk","local_studies_archives":"Local Studies","notes":""},"geometry":{"type":"Point","coordinates":[-2.801569656,54.04918065]}},{"type":"Feature","properties":{"id":76,"name":"Lancashire Archives","local_authority":"Lancashire","country":"England","arcon_code":55,"address":"Bow Lane, Preston, Lancashire, PR1 2RE","url":"https://www.lancashire.gov.uk/libraries-and-archives/archives-and-record-office/","email":"lancaster.library@lancashire.gov.uk","local_studies_archives":"Both","notes":""},"geometry":{"type":"Point","coordinates":[-2.711351793,53.75849015]}},{"type":"Feature","properties":{"id":77,"name":"Local and Family History Library, Leeds Central Library","local_authority":"Leeds","country":"England","arcon_code":"","address":"Local and Family History Library, 2nd Floor- Central Library,Calverley Street,Leeds, LS1 3AB","url":"https://www.leeds.gov.uk/leisure/libraries/local-and-family-history-services","email":"localandfamilyhistory@leeds.gov.uk","local_studies_archives":"Local Studies","notes":""},"geometry":{"type":"Point","coordinates":[-1.5486909,53.8001556]}},{"type":"Feature","properties":{"id":78,"name":"Leicester Central Library","local_authority":"Leicester City","country":"England","arcon_code":"","address":"Bishop St, Leicester, LE1 6AA","url":"https://www.leicester.gov.uk/your-community/libraries-and-community-centres/libraries/find-a-library/leicester-central-library/","email":"","local_studies_archives":"Local Studies","notes":""},"geometry":{"type":"Point","coordinates":[-1.132280642,52.63302195]}},{"type":"Feature","properties":{"id":79,"name":"Loughborough Library","local_authority":"Leicestershire","country":"England","arcon_code":"","address":"Granby St, Loughborough, LE11 3DZ","url":"https://www.leicestershire.gov.uk/leisure-and-community/libraries/find-a-library/loughborough-library","email":"loughboroughlibrary@leics.gov.uk","local_studies_archives":"Local Studies","notes":""},"geometry":{"type":"Point","coordinates":[-1.20928,52.770677]}},{"type":"Feature","properties":{"id":80,"name":"The Record Office for Leicestershire, Leicester and Rutland.","local_authority":"Leicestershire, Leicester City and Rutland","country":"England","arcon_code":"","address":"Long Street, Wigston, Leicestershire, LE18 2AH","url":"http://www.recordoffice.org.uk/resources/local-studies-library/","email":"recordoffice@leics.gov.uk","local_studies_archives":"Both","notes":""},"geometry":{"type":"Point","coordinates":[-1.1066526,52.5854202]}},{"type":"Feature","properties":{"id":81,"name":"Lewisham  Local History and Archives Centre","local_authority":"Lewisham","country":"England","arcon_code":"","address":"LOCAL HISTORY AND ARCHIVES CENTRE, LEWISHAM LIBRARY, 199 201 LEWISHAM HIGH STREET, HITHER GREEN, LONDON, SE13 6LG","url":"https://lewisham.gov.uk/inmyarea/history/archives","email":"local.studies@lewisham.gov.uk","local_studies_archives":"Both","notes":""},"geometry":{"type":"Point","coordinates":[-0.011667726,51.45925365]}},{"type":"Feature","properties":{"id":82,"name":"Lincoln Central Library","local_authority":"Lincolnshire","country":"England","arcon_code":"","address":"Lincoln Central Library, Free School Ln, Lincoln, Lincolnshire, LN2 1EZ","url":"https://www.better.org.uk/library/lincolnshire/lincolncentrallibrary","email":"","local_studies_archives":"Local Studies","notes":""},"geometry":{"type":"Point","coordinates":[-0.537123575,53.22951875]}},{"type":"Feature","properties":{"id":83,"name":"Archives and Family History, Liverpool Central Library","local_authority":"Liverpool","country":"England","arcon_code":"","address":"3rd Floor Central Library, William Brown Street, Liverpool, L3 8EW","url":"https://liverpool.gov.uk/libraries/archives-family-history/","email":"","local_studies_archives":"Both","notes":""},"geometry":{"type":"Point","coordinates":[-2.9806463,53.409906]}},{"type":"Feature","properties":{"id":84,"name":"Luton Central Library","local_authority":"Luton","country":"England","arcon_code":"","address":"Luton Central Library, St. George's Square, LUTON, LU1 2NG","url":"https://www.lutonculture.com/luton-libraries/learning-in-libraries/local-and-family-history/","email":"libraryinfo@lutonculture.com","local_studies_archives":"Local Studies","notes":""},"geometry":{"type":"Point","coordinates":[-0.417274,51.881043]}},{"type":"Feature","properties":{"id":85,"name":"Manchester Archives and Local Studies","local_authority":"Manchester","country":"England","arcon_code":127,"address":"Manchester Central Library, St Peter's Square, Manchester, M2 5PD","url":"https://secure.manchester.gov.uk/info/448/archives_and_local_history","email":"","local_studies_archives":"Both","notes":""},"geometry":{"type":"Point","coordinates":[-2.244709591,53.4781312]}},{"type":"Feature","properties":{"id":86,"name":"Medway Archives Centre","local_authority":"Medway","country":"England","arcon_code":1204,"address":"32 Bryant Road, Strood, Kent, ME2 3EP","url":"https://www.medway.gov.uk/info/200182/arts_and_heritage/317/medway_archives_centre","email":"malsc@medway.gov.uk.","local_studies_archives":"Both","notes":""},"geometry":{"type":"Point","coordinates":[0.491192,51.397545]}},{"type":"Feature","properties":{"id":87,"name":"Merton Heritage and Local Studies Centre","local_authority":"Merton","country":"England","arcon_code":1841,"address":"Merton Heritage and Local Studies Centre, 2nd floor, Morden Library, Merton Civic Centre, London Road, Morden, London, SM4 5DX","url":"https://libraries.merton.gov.uk/client/en_GB/merton/?rm=HERITAGE+AND+L0%7C%7C%7C1%7C%7C%7C0%7C%7C%7Ctrue","email":"local.studies@merton.gov.uk","local_studies_archives":"Both","notes":""},"geometry":{"type":"Point","coordinates":[-0.195737,51.401466]}},{"type":"Feature","properties":{"id":89,"name":"Local Studies Department, Milton Keynes Central Library","local_authority":"Milton Keynes","country":"England","arcon_code":"","address":"Central Library, 555 Silbury Boulevard,Central Milton Keynes,MK9 3HL","url":"https://www.milton-keynes.gov.uk/libraries/reference-business-research/local-studies-and-archives","email":"library.enquiries@milton-keynes.gov.uk","local_studies_archives":"Local Studies","notes":""},"geometry":{"type":"Point","coordinates":[-0.759062,52.043584]}},{"type":"Feature","properties":{"id":90,"name":"Newcastle City Library","local_authority":"Newcastle upon Tyne","country":"England","arcon_code":1185,"address":"Local Studies and Family History, Charles Avison Building, 33 New Bridge St West, Newcastle Upon Tyne, NE1 8AX","url":"https://newcastlecollection.newcastle.gov.uk","email":"information@newcastle.gov.uk","local_studies_archives":"Local Studies","notes":""},"geometry":{"type":"Point","coordinates":[-1.610313,54.97464]}},{"type":"Feature","properties":{"id":91,"name":"Newham Archaeology and Local History Centre","local_authority":"Newham","country":"England","arcon_code":1637,"address":"Newham Archives and Local Studies Library, First floor, Stratford Library, 3 The Grove, Stratford, London, E15 1EL","url":"https://www.newham.gov.uk/Pages/Services/Local-history-and-archives.aspx","email":"archiveslocalstudies@newham.gov.uk","local_studies_archives":"Both","notes":""},"geometry":{"type":"Point","coordinates":[0.003977,51.542748]}},{"type":"Feature","properties":{"id":92,"name":"Norfolk Heritage Centre","local_authority":"Norfolk","country":"England","arcon_code":"","address":"Norfolk and Norwich Millennium Library, The Forum, Millennium Plain, Norwich, NR2 1AW","url":"https://www.norfolk.gov.uk/libraries-local-history-and-archives/researching-family-and-local-history/norfolk-heritage-centre","email":"heritagecentre@norfolk.gov.uk","local_studies_archives":"Local Studies","notes":""},"geometry":{"type":"Point","coordinates":[1.291876,52.627736]}},{"type":"Feature","properties":{"id":93,"name":"North East Lincolnshire Local History Library","local_authority":"North East Lincolnshire","country":"England","arcon_code":"","address":"Grimsby Library, Town Hall Square, Grimsby, N.E Lincs, DN31 1HG","url":"https://www.lincsinspirelibraries.com/web/arena/local-heritage","email":"libraries@lincsinspire.com","local_studies_archives":"Local Studies","notes":""},"geometry":{"type":"Point","coordinates":[-0.0825542,53.5651224]}},{"type":"Feature","properties":{"id":94,"name":"North Lincolnshire Local Studies Library","local_authority":"North Lincolnshire","country":"England","arcon_code":"","address":"Scunthorpe Central, Carlton Street,Scunthorpe,North Lincolnshire,DN15 6TX","url":"https://www.northlincs.gov.uk/schools-libraries-and-learning/libraries/enquiry-and-research-service/","email":"ref.library@northlincs.gov.uk","local_studies_archives":"Local Studies","notes":""},"geometry":{"type":"Point","coordinates":[-0.643306,53.59221]}},{"type":"Feature","properties":{"id":95,"name":"North Somerset Studies Library","local_authority":"North Somerset","country":"England","arcon_code":"","address":"Town Hall, Walliscote Grove Road, Weston-super-Mare, BS23 1UJ","url":"https://www.n-somerset.gov.uk/my-services/leisure/local-history-archives/local-history/","email":"local.history@n-somerset.gov.uk","local_studies_archives":"Local Studies","notes":""},"geometry":{"type":"Point","coordinates":[-2.976902909,51.34583435]}},{"type":"Feature","properties":{"id":96,"name":"North Tyneside Local Studies and Information","local_authority":"North Tyneside","country":"England","arcon_code":"","address":"Discover North Tyneside, North Shields Customer First Centre,Northumberland Square,North Shields,NE30 1QU","url":"https://my.northtyneside.gov.uk/category/1017/local-studies-and-information","email":"discover@northtyneside.gov.uk","local_studies_archives":"Local Studies","notes":""},"geometry":{"type":"Point","coordinates":[-1.445687075,55.0103621]}},{"type":"Feature","properties":{"id":97,"name":"Northumberland Archives","local_authority":"Northumberland","country":"England","arcon_code":"","address":"QEII Country Park,Ashington,Northumberland,NE63 9YF","url":"https://www.northumberlandarchives.com","email":"archives@northumberland.gov.uk","local_studies_archives":"Both","notes":""},"geometry":{"type":"Point","coordinates":[-1.547364277,55.18993905]}},{"type":"Feature","properties":{"id":99,"name":"​Northamptonshire Studies","local_authority":"Northamptonshire","country":"England","arcon_code":"","address":"Northamptonshire Central Library,Abington Street,Northampton,NN1 2BA","url":"","email":"","local_studies_archives":"","notes":""},"geometry":{"type":"Point","coordinates":[-0.891507043,52.23854965]}},{"type":"Feature","properties":{"id":100,"name":"Local Studies Library, Nottingham Central Library","local_authority":"Nottingham","country":"England","arcon_code":"","address":"Nottingham Central Library, Angel Row, Nottingham, NG1 6HP","url":"www.nottinghamcity.gov.uk/leisure-and-culture/libraries/local-studies-and-family-history","email":"local_studies.library@nottinghamcity.gov.uk","local_studies_archives":"Local Studies","notes":""},"geometry":{"type":"Point","coordinates":[-1.153321479,52.95362925]}},{"type":"Feature","properties":{"id":101,"name":"Nottinghamshire Archives","local_authority":"Nottinghamshire","country":"England","arcon_code":"","address":"County House, Castle Meadow Road, Nottingham, NG12 1AG","url":"www.inspireculture.org.uk/heritage/archives/","email":"archives@inspireculture.org.uk","local_studies_archives":"Archive","notes":"Local Studies material held within branch libraries."},"geometry":{"type":"Point","coordinates":[-1.151023035,52.94747225]}},{"type":"Feature","properties":{"id":102,"name":"Oldham Local Studies & Archives","local_authority":"Oldham","country":"England","arcon_code":758,"address":"84 Union Street, Oldham, England, OL1 1DN","url":"www.oldham.gov.uk/info/200276/local_history/1855/contact_local_studies_and_archives","email":"archives@oldham.gov.uk","local_studies_archives":"Both","notes":""},"geometry":{"type":"Point","coordinates":[-2.109961622,53.54058555]}},{"type":"Feature","properties":{"id":103,"name":"Oxfordshire History Centre","local_authority":"Oxfordshire","country":"England","arcon_code":160,"address":"St Luke's Church, Temple Road, Cowley, Oxford, England, OX4 2HT","url":"www.oxfordshire.gov.uk/residents/leisure-and-culture/history/oxfordshire-history-centre?utm_term=nil&utm_content=","email":"oxhist@oxfordshire.gov.uk","local_studies_archives":"Both","notes":""},"geometry":{"type":"Point","coordinates":[-1.212039881,51.73461755]}},{"type":"Feature","properties":{"id":104,"name":"Peterborough Central Library & Archives","local_authority":"Peterborough","country":"England","arcon_code":"","address":"Broadway, Peterborough, PE1 1RX","url":"https://vivacity.org/library-archives/archives/peterborough-archive-services/","email":"archives.services@vivacity-peterborough.com","local_studies_archives":"Both","notes":""},"geometry":{"type":"Point","coordinates":[-0.241440274,52.57650835]}},{"type":"Feature","properties":{"id":105,"name":"Plymouth Local Studies Collection","local_authority":"Plymouth","country":"England","arcon_code":"","address":"Central Library, 167-171 Armarda Way, Plymouth, PL1 1HZ","url":"www.plymouth.gov.uk/libraries/localandfamilyhistory/localhistory","email":"library@plymouth.gov.uk","local_studies_archives":"Local Studies","notes":"Local Studies combining with archives in 2020"},"geometry":{"type":"Point","coordinates":[-4.142822,50.373244]}},{"type":"Feature","properties":{"id":106,"name":"Poole History Centre","local_authority":"Poole","country":"England","arcon_code":"","address":"4 High Street, Poole, Dorset, BH15 1BW","url":"www.poolemuseum.org.uk/plan-your-visit/poole-history-centre/","email":"localhistory@poole.gov.uk","local_studies_archives":"Local Studies","notes":""},"geometry":{"type":"Point","coordinates":[-1.989237,50.712346]}},{"type":"Feature","properties":{"id":107,"name":"Portsmouth History Centre","local_authority":"Portsmouth","country":"England","arcon_code":42,"address":"Portsmouth Central Library, Guildhall Square, Portsmouth, PO1 2DX","url":"www.portsmouth.gov.uk/ext/libraries/portsmouth-history-centre-and-records-office","email":"portsmouthhistorycentre@portsmouthcc.gov.uk","local_studies_archives":"Both","notes":""},"geometry":{"type":"Point","coordinates":[-1.092080265,50.7972525]}},{"type":"Feature","properties":{"id":108,"name":"Local Studies Collection","local_authority":"Reading","country":"England","arcon_code":"","address":"Central Library, Abbey Square, Reading, RG1 3BQ","url":"www.reading.gov.uk/centrallibrary","email":"info@readinglibraries.org.uk","local_studies_archives":"Local Studies","notes":""},"geometry":{"type":"Point","coordinates":[-0.967763724,51.45502715]}},{"type":"Feature","properties":{"id":109,"name":"Redbridge Local Studies and Archives","local_authority":"Redbridge","country":"England","arcon_code":90,"address":"Local History Room [2nd Floor], Redbridge Central Library, Clements Road, Ilford, IG1 1EA","url":"www.redbridge.gov.uk/libraries/archives-and-history/","email":"info.heritage@visionrcl.org.uk","local_studies_archives":"Both","notes":""},"geometry":{"type":"Point","coordinates":[0.0753621,51.5580614]}},{"type":"Feature","properties":{"id":111,"name":"Richmond upon Thames Local Studies Library and Archive","local_authority":"Richmond upon Thames","country":"England","arcon_code":358,"address":"Old Town Hall Whittaker Avenue, Richmond, England, TW9 1TP","url":"https://www.richmond.gov.uk/local_studies_collection","email":"localstudies@richmond.gov.uk","local_studies_archives":"Both","notes":""},"geometry":{"type":"Point","coordinates":[-0.306460565,51.4589026]}},{"type":"Feature","properties":{"id":112,"name":"Rochdale Local Studies and Archive","local_authority":"Rochdale","country":"England","arcon_code":128,"address":"Touchstones Rochdale The Esplanade, Rochdale, OL16 1AQ","url":"Link4Life (Rochdale Boroughwide Cultural Trust) - Local Studies Centre","email":"touchstones@link4life.org","local_studies_archives":"Both","notes":""},"geometry":{"type":"Point","coordinates":[-2.162119736,53.61511135]}},{"type":"Feature","properties":{"id":113,"name":"Heywood Library, Local Studies Collection","local_authority":"Rochdale","country":"England","arcon_code":1168,"address":"Heywood Library, Church Street, Heywood, OL10 1LL","url":"Heywood Library (rochdale.gov.uk)","email":"library.service@rochdale.gov.uk","local_studies_archives":"Local Studies","notes":""},"geometry":{"type":"Point","coordinates":[-2.218209998,53.5925162]}},{"type":"Feature","properties":{"id":114,"name":"Rotherham Archives and Local Studies","local_authority":"Rotherham","country":"England","arcon_code":198,"address":"Clifton Park Museum, Clifton Lane, Rotherham,S65 2AA","url":"Archives and local history – Rotherham Metropolitan Borough Council","email":"Email us","local_studies_archives":"Both","notes":""},"geometry":{"type":"Point","coordinates":[-1.346804362,53.4294997]}},{"type":"Feature","properties":{"id":116,"name":"St Helens Archive Service","local_authority":"St Helens","country":"England","arcon_code":"","address":"The Gamble Building, Victoria Square, St Helens, Merseyside, WA10 1DY","url":"St Helens Archive Service - St Helens Council","email":"archives@sthelens.gov.uk","local_studies_archives":"Archive","notes":""},"geometry":{"type":"Point","coordinates":[-2.734377,53.453497]}},{"type":"Feature","properties":{"id":117,"name":"Local Studies Library, Salford Museum & Art Gallery","local_authority":"Salford","country":"England","arcon_code":"","address":"Peel Park, The Crescent, Salford, M5 4WU","url":"Local History Library - Salford Museum & Art Gallery","email":"local.history@scll.co.uk","local_studies_archives":"Art Gallery/Museum","notes":""},"geometry":{"type":"Point","coordinates":[-2.2720327,53.4848918]}},{"type":"Feature","properties":{"id":118,"name":"Sandwell Community History and Archives Service","local_authority":"Sandwell","country":"England","arcon_code":"","address":"Smethwick Library, High Street, Smethwick, B66 1AA","url":"Visiting Sandwell Community History and Archives Service | Visit the archives service | Sandwell Council","email":"archives_service@sandwell.gov.uk","local_studies_archives":"Both","notes":""},"geometry":{"type":"Point","coordinates":[-1.972629023,52.496451]}},{"type":"Feature","properties":{"id":119,"name":"Sefton Local archives and history","local_authority":"Sefton","country":"England","arcon_code":"","address":"Crosby Library,Crosby Road North,Waterloo,L22 0LQ","url":"Local archives and history - Information Services (sefton.gov.uk)","email":"","local_studies_archives":"Both","notes":""},"geometry":{"type":"Point","coordinates":[-3.022474184,53.4776026]}},{"type":"Feature","properties":{"id":120,"name":"Sheffield City Libraries, Local Studies Section","local_authority":"Sheffield","country":"England","arcon_code":1783,"address":"Central Library, Surrey Street, Sheffield, S1 1XZ","url":"https://www.sheffield.gov.uk/home/libraries-archives","email":"https://www.sheffield.gov.uk/content/forms/af/your-city-council/enquiry-form.html","local_studies_archives":"Both","notes":""},"geometry":{"type":"Point","coordinates":[-1.467243733,53.3801284]}},{"type":"Feature","properties":{"id":121,"name":"Shropshire Archives","local_authority":"Shropshire","country":"England","arcon_code":"","address":"Shropshire Archives, Castle Gates, Shrewsbury, Shropshire, SY1 2AQ","url":"https://www.shropshirearchives.org.uk/","email":"libraries@shropshire.gov.uk","local_studies_archives":"Both","notes":""},"geometry":{"type":"Point","coordinates":[-2.751575174,52.71078885]}},{"type":"Feature","properties":{"id":122,"name":"Slough Libraries, Local Studies","local_authority":"Slough","country":"England","arcon_code":"","address":"Library @ The Curve, William St, Slough, SL1 1XY","url":"http://www.slough.gov.uk/libraries/local-studies.aspx","email":"library@slough.gov.uk","local_studies_archives":"Local Studies","notes":""},"geometry":{"type":"Point","coordinates":[-0.59461688,51.509894]}},{"type":"Feature","properties":{"id":123,"name":"Solihull Heritage & Local Studies","local_authority":"Solihull","country":"England","arcon_code":437,"address":"The Core Library, Homer Road, Solihull, B91 3RG","url":"https://www.solihull.gov.uk/localhistory","email":"heritage@solihull.gov.uk","local_studies_archives":"Local Studies","notes":""},"geometry":{"type":"Point","coordinates":[-1.779979279,52.4118118]}},{"type":"Feature","properties":{"id":124,"name":"Somerset Archives and Local Studies","local_authority":"Somerset","country":"England","arcon_code":"","address":"Somerset Heritage Centre, Brunel Way, Norton Fitzwarren, Taunton, TA2 6SF","url":"https://swheritage.org.uk/somerset-archives/","email":"somersetarchives@swheritage.org.uk","local_studies_archives":"Both","notes":""},"geometry":{"type":"Point","coordinates":[-3.137831245,51.02582055]}},{"type":"Feature","properties":{"id":126,"name":"South Tyneside Libraries","local_authority":"South Tyneside","country":"England","arcon_code":"","address":"The Word,45 Market Place,South Shields,Tyne & Wear,NE33 1DX","url":"https://www.southtyneside.gov.uk/article/34346/Local-history-and-heritage","email":"library.support@southtyneside.gov.uk","local_studies_archives":"Local Studies","notes":""},"geometry":{"type":"Point","coordinates":[-1.4382195,54.9974455]}},{"type":"Feature","properties":{"id":127,"name":"Local Studies and Maritime Library","local_authority":"Southampton","country":"England","arcon_code":"","address":"Central Library, Civic Centre, Southampton, SO14 7LW","url":"https://www.southampton.gov.uk/libraries/council-libraries/maritime-library.aspx","email":"local.studies@southampton.gov.uk","local_studies_archives":"Local Studies","notes":""},"geometry":{"type":"Point","coordinates":[-1.40648309,50.90804385]}},{"type":"Feature","properties":{"id":128,"name":"Southend Library","local_authority":"Southend on Sea","country":"England","arcon_code":"","address":"Southend Forum, Elmer Square, Southend-on-Sea, Essex, SS1 1NS","url":"https://www.southend.gov.uk/downloads/download/8/local_studies","email":"council@southend.gov.uk","local_studies_archives":"Local Studies","notes":""},"geometry":{"type":"Point","coordinates":[0.711425,51.538911]}},{"type":"Feature","properties":{"id":129,"name":"Southwark Local History Library & Archive","local_authority":"Southwark","country":"England","arcon_code":"","address":"211 Borough High Street,London,SE1 1JA","url":"https://www.southwark.gov.uk/libraries/local-history-library-and-archive/visiting-the-local-history-library-and-archive","email":"https://www.southwark.gov.uk/libraries/local-history-library-and-archive/visiting-the-local-history-library-and-archive?emailUsContact=1560","local_studies_archives":"Both","notes":""},"geometry":{"type":"Point","coordinates":[-0.0917292,51.5017274]}},{"type":"Feature","properties":{"id":130,"name":"Stafford Library","local_authority":"Staffordshire","country":"England","arcon_code":494,"address":"Stafford Library, Staffordshire Place, Tipping Street, Stafford, ST16 2DH","url":"https://www.staffordshire.gov.uk/Libraries/Library-services/localfamilyhistory/Local-and-family-history-online.aspx","email":"stafford.library@staffordshire.gov.uk","local_studies_archives":"Local Studies","notes":""},"geometry":{"type":"Point","coordinates":[-2.115054083,52.80583785]}},{"type":"Feature","properties":{"id":131,"name":"Stockport Heritage Library","local_authority":"Stockport","country":"England","arcon_code":"","address":"Stockport Local Heritage Library,Wellington Road South,Stockport,SK1 3RS","url":"https://www.stockport.gov.uk/heritage-library-archives","email":"localheritagelibrary@stockport.gov.uk","local_studies_archives":"Both","notes":""},"geometry":{"type":"Point","coordinates":[-2.160629872,53.4081405]}},{"type":"Feature","properties":{"id":132,"name":"Stockton Libraries and Community Information Service","local_authority":"Stockton on Tees","country":"England","arcon_code":"","address":"Church Rd, Stockton-on-Tees, TS18 1TU","url":"https://www.stockton.gov.uk/arts-culture-and-leisure/libraries/reference-and-family-history-research/","email":"reference.library@stockton.gov.uk","local_studies_archives":"Local Studies","notes":""},"geometry":{"type":"Point","coordinates":[-1.311104117,54.5666199]}},{"type":"Feature","properties":{"id":133,"name":"Stoke on Trent City Archives","local_authority":"Stoke on Trent","country":"England","arcon_code":"","address":"Stoke-on-Trent City Archives,City Central Library,Bethesda Street,Hanley,Stoke on Trent,ST1 3RS","url":"https://www.staffordshire.gov.uk/Heritage-and-archives/about/Home.aspx","email":"stoke.archives@stoke.gov.uk","local_studies_archives":"Both","notes":""},"geometry":{"type":"Point","coordinates":[-2.17714039,53.0223925]}},{"type":"Feature","properties":{"id":134,"name":"Suffolk Archives","local_authority":"Suffolk","country":"England","arcon_code":"","address":"Suffolk Archives, 131 Fore St, Ipswich, IP4 1LN","url":"https://www.suffolkarchives.co.uk/","email":"ipswich.archives@suffolk.gov.uk","local_studies_archives":"Both","notes":""},"geometry":{"type":"Point","coordinates":[1.16370135,52.0534549]}},{"type":"Feature","properties":{"id":135,"name":"Sunderland City Library and Arts Centre: Local Studies Library","local_authority":"Sunderland","country":"England","arcon_code":2958,"address":"64 Fawcett Street, Sunderland, England, SR1 1RE","url":"https://www.sunderland.gov.uk/article/12831/Local-studies-and-family-history","email":"enquiry.desk@sunderland.gov.uk","local_studies_archives":"Local Studies","notes":""},"geometry":{"type":"Point","coordinates":[-1.382042,54.907459]}},{"type":"Feature","properties":{"id":136,"name":"Surrey History Centre","local_authority":"Surrey","country":"England","arcon_code":176,"address":"130 Goldsworth Road, Woking, England, GU21 6ND","url":"https://www.surreycc.gov.uk/culture-and-leisure/history-centre","email":"shs@surreycc.gov.uk","local_studies_archives":"Both","notes":""},"geometry":{"type":"Point","coordinates":[-0.570115,51.317177]}},{"type":"Feature","properties":{"id":137,"name":"Sutton: Archives & Local Studies","local_authority":"Sutton","country":"England","arcon_code":362,"address":"Level 2A, Central Library, St Nicholas Way, Sutton, London, SM1 1EA","url":"https://www.sutton.gov.uk/info/200168/libraries_museums_archives_and_arts","email":"sutton.library@sutton.gov.uk","local_studies_archives":"Both","notes":""},"geometry":{"type":"Point","coordinates":[-0.194815,51.36149]}},{"type":"Feature","properties":{"id":138,"name":"Swindon Central Library","local_authority":"Swindon","country":"England","arcon_code":525,"address":"Local Studies and Family History, Swindon Central Library, Regent Circus, Swindon, England, SN1 1QG","url":"https://www.swindon.gov.uk/info/20026/libraries/302/local_studies_local_history_and_genealogy","email":"localstudies@swindon.gov.uk","local_studies_archives":"Local Studies","notes":""},"geometry":{"type":"Point","coordinates":[-1.78116,51.558808]}},{"type":"Feature","properties":{"id":139,"name":"Tameside Local Studies and Archives","local_authority":"Tameside","country":"England","arcon_code":131,"address":"Central Library, Old Street, Ashton-under Lyne, England, OL6 7SG","url":"https://www.tameside.gov.uk/localstudies","email":"https://public.tameside.gov.uk/contact/contact.asp?hide=true&dept=63&subject=","local_studies_archives":"Local Studies","notes":""},"geometry":{"type":"Point","coordinates":[-2.098077,53.487718]}},{"type":"Feature","properties":{"id":140,"name":"Community History Centre","local_authority":"Telford and Wrekin","country":"England","arcon_code":"","address":"Wellington Library, Wellington Civic and Leisure Centre,Larkin Way,Wellington,Telford,TF1 1LX","url":"https://www.telford.gov.uk/info/20412/children_and_young_people/3455/local_history","email":"libraryenquiries@telford.gov.uk","local_studies_archives":"Local Studies","notes":""},"geometry":{"type":"Point","coordinates":[-2.518689331,52.6992304]}},{"type":"Feature","properties":{"id":141,"name":"Thurrock Local Studies","local_authority":"Thurrock","country":"England","arcon_code":3163,"address":"Grays Library, Orsett Road, Grays, England, RM17 5DX","url":"https://www.thurrock.gov.uk/history-research-at-your-library/local-history","email":"grays.library@thurrock.gov.uk","local_studies_archives":"Local Studies","notes":""},"geometry":{"type":"Point","coordinates":[0.324478,51.479123]}},{"type":"Feature","properties":{"id":142,"name":"Torbay Local Studies","local_authority":"Torbay","country":"England","arcon_code":"","address":"Torquay Library, Lymington Road, Torquay, TQ1 3DT","url":"https://www.torbay.gov.uk/libraries/local-studies/","email":"torquay.library@​librariesunlimited.org.uk","local_studies_archives":"Local Studies","notes":""},"geometry":{"type":"Point","coordinates":[-3.531922,50.469245]}},{"type":"Feature","properties":{"id":143,"name":"Tower Hamlets Local History Library","local_authority":"Tower Hamlets","country":"England","arcon_code":"","address":"277 Bancroft Road, London, E1 4DQ","url":"http://www.ideastore.co.uk/local-history","email":"localhistory@towerhamlets.gov.uk","local_studies_archives":"Both","notes":""},"geometry":{"type":"Point","coordinates":[-0.042623,51.523823]}},{"type":"Feature","properties":{"id":144,"name":"Trafford Local Studies Centre","local_authority":"Trafford","country":"England","arcon_code":742,"address":"Sale Library, Sale Waterside, Sale, England, M33 7ZF","url":"https://www.trafford.gov.uk/residents/leisure-and-lifestyle/libraries/archives-and-local-history.aspx","email":"trafflocals@trafford.gov.uk","local_studies_archives":"Both","notes":""},"geometry":{"type":"Point","coordinates":[-2.320065,53.425447]}},{"type":"Feature","properties":{"id":145,"name":"Wakefield Local studies library","local_authority":"Wakefield","country":"England","arcon_code":740,"address":"Wakefield Library, Wakefield One, Burton Street, Wakefield, WF1 2DD","url":"www.wakefield.gov.uk/libraries-and-local-history/local-and-family-history","email":"wakefieldlibrarymuseum@wakefield.gov.uk","local_studies_archives":"Local Studies","notes":""},"geometry":{"type":"Point","coordinates":[-1.50373157,53.68424363]}},{"type":"Feature","properties":{"id":146,"name":"Walsall Local History Centre","local_authority":"Walsall","country":"England","arcon_code":"","address":"Walsall Local History Centre,Lichfield Street Hub,Lichfield Street,Walsall,WS1 1TR","url":"https://go.walsall.gov.uk/localhistorycentre","email":"localhistorycentre@walsall.gov.uk","local_studies_archives":"Both","notes":""},"geometry":{"type":"Point","coordinates":[-1.978534,52.586358]}},{"type":"Feature","properties":{"id":147,"name":"Waltham Forest Archives and local studies library","local_authority":"Waltham Forest","country":"England","arcon_code":"","address":"Vestry House Museum,Vestry Road ,Walthamstow,E17 9NH","url":"https://www.walthamforest.gov.uk/content/waltham-forest-archives-and-local-studies-library","email":"vhm.enquiries@walthamforest.gov.uk","local_studies_archives":"Both","notes":""},"geometry":{"type":"Point","coordinates":[-0.012838085,51.58407205]}},{"type":"Feature","properties":{"id":148,"name":"Wandsworth Heritage Service","local_authority":"Wandsworth","country":"England","arcon_code":"","address":"265 Lavender Hill,Battersea,London,SW11 1JB","url":"https://www.better.org.uk/library/london/wandsworth/wandsworth-heritage-service","email":"heritage@gll.org","local_studies_archives":"Both","notes":""},"geometry":{"type":"Point","coordinates":[-0.164153708,51.4638827]}},{"type":"Feature","properties":{"id":149,"name":"Warrington Local and family history","local_authority":"Warrington","country":"England","arcon_code":"","address":"Warrington Library, Museum Street, Warrington, WA1 1JB","url":"","email":"searchroom@culturewarrington.org","local_studies_archives":"Both","notes":""},"geometry":{"type":"Point","coordinates":[-2.596305035,53.38704635]}},{"type":"Feature","properties":{"id":150,"name":"The Warwickshire Collection","local_authority":"Warwickshire","country":"England","arcon_code":"","address":"Nuneaton Library, Church Street,Nuneaton,CV11 4DR","url":"https://www.warwickshire.gov.uk/localstudies","email":"libraryenquiryteam@warwickshire.gov.uk.","local_studies_archives":"Local Studies","notes":""},"geometry":{"type":"Point","coordinates":[-1.464056556,52.52212932]}},{"type":"Feature","properties":{"id":151,"name":"West Berkshire Libraries","local_authority":"West Berkshire","country":"England","arcon_code":"","address":"Newbury Library, The Wharf, Newbury, West Berkshire RG14 5AU","url":"www.westberks.gov.uk/libraries","email":"library@westberks.gov.uk","local_studies_archives":"Not clear","notes":""},"geometry":{"type":"Point","coordinates":[-1.32063405,51.40155375]}},{"type":"Feature","properties":{"id":152,"name":"Worthing Library","local_authority":"West Sussex","country":"England","arcon_code":"","address":"Worthing Library, Richmond Road, Worthing, West Sussex, BN11 1HD","url":"https://www.westsussex.gov.uk/leisure-recreation-and-community/history-and-heritage/local-studies-in-libraries/","email":"EnquiriesTeam@westsussex.gov.uk ; Online enquiry form: https://www.westsussex.gov.uk/libraries/ask-a-librarian/","local_studies_archives":"Local Studies","notes":""},"geometry":{"type":"Point","coordinates":[-0.372319494,50.8141742]}},{"type":"Feature","properties":{"id":153,"name":"Archives: Wigan and Leigh","local_authority":"Wigan","country":"England","arcon_code":"","address":"Leigh Town Hall, Civic Square, Market Street, Leigh, WN7 1DY","url":"https://www.wigan.gov.uk/Resident/Museums-archives/Wigan-Archives/Collections/Family-history.aspx","email":"Online enquiry form: https://www.wigan.gov.uk/Contacts/Heritage.aspx","local_studies_archives":"Both","notes":""},"geometry":{"type":"Point","coordinates":[-2.519280952,53.4972114]}},{"type":"Feature","properties":{"id":154,"name":"Wigan Archives and Local Studies","local_authority":"Wigan","country":"England","arcon_code":"","address":"Museum of Wigan Life, Library Street, Wigan, WN1 1NU","url":"https://www.wigan.gov.uk/Resident/Museums-archives/Wigan-Archives/Collections/Family-history.aspx","email":"Online enquiry form: https://www.wigan.gov.uk/Contacts/Heritage.aspx","local_studies_archives":"Both","notes":"Plus museum"},"geometry":{"type":"Point","coordinates":[-2.629721387,53.54415175]}},{"type":"Feature","properties":{"id":155,"name":"Wiltshire and Swindon History Centre","local_authority":"Wiltshire","country":"England","arcon_code":"","address":"Wiltshire Local Studies, Wiltshire and Swindon History Centre, Cocklebury Road, Chippenham SN15 3QN","url":"http://www.wshc.eu/our-services/wiltshire-local-studies.html","email":"heritageadmin@wiltshire.gov.uk","local_studies_archives":"Both","notes":""},"geometry":{"type":"Point","coordinates":[-2.108909312,51.4639403]}},{"type":"Feature","properties":{"id":156,"name":"Maidenhead Library","local_authority":"Windsor and Maidenhead","country":"England","arcon_code":3293,"address":"Maidenhead Library, St. Ives Road, Maidenhead, Berkshire, SL6 1QU","url":"https://www3.rbwm.gov.uk/info/200198/local_history_and_heritage/443/local_and_family_history_-_resources_available","email":"maidenhead.library@rbwm.gov.uk","local_studies_archives":"Local Studies","notes":""},"geometry":{"type":"Point","coordinates":[-0.717763445,51.52214497]}},{"type":"Feature","properties":{"id":157,"name":"Windsor Library","local_authority":"Windsor and Maidenhead","country":"England","arcon_code":3293,"address":"Windsor Library, Bachelors Acre, Windsor, Berkshire SL4 1ER","url":"https://www3.rbwm.gov.uk/info/200198/local_history_and_heritage/443/local_and_family_history_-_resources_available","email":"windsor.library@rbwm.gov.uk","local_studies_archives":"Local Studies","notes":""},"geometry":{"type":"Point","coordinates":[-0.60935284,51.48060708]}},{"type":"Feature","properties":{"id":158,"name":"City of Westminster Archives Centre","local_authority":"Westminster","country":"England","arcon_code":"","address":"City of Westminster Archives Centre, 10 St Ann's Street, Westminster, London SW1P 2DE","url":"https://www.westminster.gov.uk/archives","email":"archives@westminster.gov.uk","local_studies_archives":"Both","notes":""},"geometry":{"type":"Point","coordinates":[-0.130133146,51.4975772]}},{"type":"Feature","properties":{"id":159,"name":"Birkenhead Central Library","local_authority":"Wirral","country":"England","arcon_code":"","address":"Birkenhead Central Library, Borough Road, Birkenhead, Wirral, CH41 2XB","url":"https://www.wirral.gov.uk/libraries-and-archives/local-and-family-history","email":"birkenheadreflib@wirral.gov.uk        Online research request: https://my.wirral.gov.uk/service/Library_research_application_form","local_studies_archives":"Local Studies","notes":""},"geometry":{"type":"Point","coordinates":[-3.031661373,53.38605872]}},{"type":"Feature","properties":{"id":160,"name":"Wokingham Library","local_authority":"Wokingham","country":"England","arcon_code":"","address":"Wokingham Library, Denmark Street, Wokingham, Berkshire, RG40 2BB","url":"https://www.wokingham.gov.uk/births-deaths-and-marriages/local-and-family-history/historical-information-and-maps/","email":"libraries@wokingham.gov.uk","local_studies_archives":"Local Studies","notes":""},"geometry":{"type":"Point","coordinates":[-0.835670189,51.40823943]}},{"type":"Feature","properties":{"id":161,"name":"Wolverhampton Arts & Culture","local_authority":"Wolverhampton","country":"England","arcon_code":"","address":"Wolverhampton City Archives, Molineux Hotel Building, Whitmore Hill, Wolverhampton, West Midlands, WV1 1SF","url":"http://www.wolverhamptonart.org.uk/visit/wolverhampton-archives/","email":"archives@wolverhampton.gov.uk <archives@wolverhampton.gov.uk>;","local_studies_archives":"Both","notes":""},"geometry":{"type":"Point","coordinates":[-2.130634955,52.58856255]}},{"type":"Feature","properties":{"id":162,"name":"The Hive (Worcestershire City Council and the University of Worcester)","local_authority":"Worcestershire","country":"England","arcon_code":"","address":"The Hive, Sawmill Walk, The Butts, Worcester, WR1 3PD","url":"http://www.thehiveworcester.org/special-collections.html","email":"TheHiveLibrary@worcestershire.gov.uk <TheHiveLibrary@worcestershire.gov.uk>;","local_studies_archives":"Local Studies","notes":""},"geometry":{"type":"Point","coordinates":[-2.225993079,52.19372935]}},{"type":"Feature","properties":{"id":163,"name":"York Explore Library and Archive","local_authority":"York","country":"England","arcon_code":"","address":"York Explore Library and Archive, Library Square, York, YO1 7DS","url":"https://www.exploreyork.org.uk/archives/","email":"york@exploreyork.org.uk","local_studies_archives":"Both","notes":""},"geometry":{"type":"Point","coordinates":[-1.086068,53.9613]}},{"type":"Feature","properties":{"id":164,"name":"John Goodchild Collection","local_authority":"West Yorkshire","country":"England","arcon_code":2494,"address":"West Yorkshire History Centre, 127 Kirkgate, Wakefield, England, WF1 1JG","url":"https://www.wyjs.org.uk/archive-service/contact-us-and-opening-times/west-yorkshire-history-centre-wakefield-archive-service-opening-times-and-information/","email":"wakefield@wyjs.org.uk","local_studies_archives":"Both","notes":""},"geometry":{"type":"Point","coordinates":[-1.491609033,53.6796571]}},{"type":"Feature","properties":{"id":165,"name":"Irish and Local Studies Library, Armagh","local_authority":"Northern Ireland","country":"Northern Ireland","arcon_code":"","address":"39c Abbey Street, Armagh, BT61 7EB","url":"https://www.librariesni.org.uk/Services/Heritage/Pages/Irish-and-Local-Studies-Library-Armagh.aspx","email":"armaghirishandlocal@librariesni.org.uk","local_studies_archives":"Local Studies","notes":""},"geometry":{"type":"Point","coordinates":[-6.657407,54.348826]}},{"type":"Feature","properties":{"id":166,"name":"Ballymena Central Library","local_authority":"Northern Ireland","country":"Northern Ireland","arcon_code":"","address":"5 Pat’s Brae, Ballymena, BT43 5AX","url":"https://www.librariesni.org.uk/Services/Heritage/Pages/Ballymena-Central-Library.aspx","email":"ballymena.heritage@librariesni.org.uk","local_studies_archives":"Local Studies","notes":""},"geometry":{"type":"Point","coordinates":[-6.27802194,54.8648025]}},{"type":"Feature","properties":{"id":167,"name":"Belfast Central Library","local_authority":"Northern Ireland","country":"Northern Ireland","arcon_code":1665,"address":"Royal Avenue, Belfast, BT1 1EA","url":"https://www.librariesni.org.uk/Services/Heritage/Pages/Belfast-Central-Library.aspx","email":"belfast.heritage@librariesni.org.uk","local_studies_archives":"Local Studies","notes":""},"geometry":{"type":"Point","coordinates":[-5.931362183,54.6028496]}},{"type":"Feature","properties":{"id":168,"name":"Derry Central Library","local_authority":"Northern Ireland","country":"Northern Ireland","arcon_code":"","address":"35m Foyle Street, Derry, County Londonderry, BT48 6AL","url":"https://www.librariesni.org.uk/Services/Heritage/Pages/Derry-Central-Library.aspx","email":"derrycentral.library@librariesni.org.uk","local_studies_archives":"Local Studies","notes":""},"geometry":{"type":"Point","coordinates":[-7.318507,54.996284]}},{"type":"Feature","properties":{"id":169,"name":"Downpatrick Library","local_authority":"Northern Ireland","country":"Northern Ireland","arcon_code":"","address":"Market Street, Downpatrick, BT30 6LZ","url":"https://www.librariesni.org.uk/Services/Heritage/Pages/Downpatrick-Library.aspx","email":"localstudies.down@librariesni.org.uk","local_studies_archives":"Local Studies","notes":""},"geometry":{"type":"Point","coordinates":[-5.7189504,54.32626495]}},{"type":"Feature","properties":{"id":170,"name":"Enniskillen Library","local_authority":"Northern Ireland","country":"Northern Ireland","arcon_code":"","address":"Hall’s Lane, Enniskillen, BT74 7DR","url":"https://www.librariesni.org.uk/Services/Heritage/Pages/Enniskillen-Library.aspx","email":"enniskillen.library@librariesni.org.uk","local_studies_archives":"Local Studies","notes":""},"geometry":{"type":"Point","coordinates":[-7.64051,54.347571]}},{"type":"Feature","properties":{"id":171,"name":"Newry City Library","local_authority":"Northern Ireland","country":"Northern Ireland","arcon_code":"","address":"79 Hill Street, Newry, BT34 1DG","url":"https://www.librariesni.org.uk/Services/Heritage/Pages/Newry-City-Library.aspx","email":"newry.heritage@librariesni.org.uk","local_studies_archives":"Local Studies","notes":""},"geometry":{"type":"Point","coordinates":[-6.337084698,54.17682775]}},{"type":"Feature","properties":{"id":172,"name":"Omagh Library","local_authority":"Northern Ireland","country":"Northern Ireland","arcon_code":"","address":"1 Spillars Place, Omagh, Co Tyrone, BT78 1HL","url":"https://www.librariesni.org.uk/Services/Heritage/Pages/Omagh-Library.aspx","email":"omagh.library@librariesni.org.uk","local_studies_archives":"Local Studies","notes":""},"geometry":{"type":"Point","coordinates":[-7.297827,54.599185]}},{"type":"Feature","properties":{"id":173,"name":"Mellon Centre for Migration Studies","local_authority":"Northern Ireland","country":"Northern Ireland","arcon_code":"","address":"Ulster American Folk Park, 2 Mellon Road, Omagh, Northern Ireland, BT78 5QU","url":"https://www.librariesni.org.uk/Services/Heritage/Pages/Mellon-Centre-for-Migration-Studies.aspx","email":"mcms@librariesni.org.uk","local_studies_archives":"Local Studies","notes":""},"geometry":{"type":"Point","coordinates":[-7.334884,54.659547]}},{"type":"Feature","properties":{"id":175,"name":"Y Llynfi Local and Family History Library","local_authority":"Bridgend Library Service, Awen Cultural Trust","country":"Wales","arcon_code":"","address":"Maesteg Library, North’s Lane, Maesteg, CF34 9AA","url":"https://awen-libraries.azurewebsites.net/family-tree-research/","email":"maesteg.library@awen-wales.com","local_studies_archives":"Local Studies","notes":""},"geometry":{"type":"Point","coordinates":[-3.65712729,51.6090811]}},{"type":"Feature","properties":{"id":176,"name":"LOCAL & FAMILY HISTORY CENTRE","local_authority":"Bridgend Library Service","country":"Wales","arcon_code":"","address":"Maesteg Sports Centre, Old Forge Site, Nant y Crynwydd, Maesteg, Bridgend, CF34 9EB","url":"","email":"localandfamilyhistory@awen-wales.com","local_studies_archives":"Local Studies","notes":""},"geometry":{"type":"Point","coordinates":[-3.663853,51.610657]}},{"type":"Feature","properties":{"id":177,"name":"Bargoed library","local_authority":"Caerphilly","country":"Wales","arcon_code":"","address":"Hanbury Chapel, 6a Hanbury Road, Bargoed, CF81 8QR","url":"https://www.caerphilly.gov.uk/Services/Libraries/Trace-your-family-tree","email":"libbarg@caerphilly.gov.uk","local_studies_archives":"","notes":""},"geometry":{"type":"Point","coordinates":[-3.2286878,51.6899311]}},{"type":"Feature","properties":{"id":178,"name":"Cathays Branch and Heritage Library","local_authority":"Cardiff","country":"Wales","arcon_code":"","address":"Fairoak Road, Cathays, CF24 4PW","url":"https://cardiffhubs.co.uk/hub/cathays-branch-and-heritage-library/","email":"","local_studies_archives":"Local Studies","notes":""},"geometry":{"type":"Point","coordinates":[-3.182141278,51.4973522]}},{"type":"Feature","properties":{"id":179,"name":"Media Archive for Central England (MACE)","local_authority":"Non LA","country":"England","arcon_code":603,"address":"The Media Archive for Central England, The University of Lincoln, Alfred Tennyson Building, Brayford Pool, Lincoln, LN6 7TS","url":"https://www.macearchive.org/","email":"mace@lincoln.ac.uk","local_studies_archives":"Archive","notes":"Public film archive for the East and West Midlands."},"geometry":{"type":"Point","coordinates":[-0.549952,53.229208]}},{"type":"Feature","properties":{"id":180,"name":"The National Archives Reference Library","local_authority":"Non LA","country":"England","arcon_code":"","address":"The National Archives Kew, Richmond, Surrey, TW9 4DU","url":"http://www.nationalarchives.gov.uk/about/visit-us/researching-here/using-the-national-archives-reference-library/","email":"","local_studies_archives":"Local Studies","notes":""},"geometry":{"type":"Point","coordinates":[-0.279190491,51.48111545]}},{"type":"Feature","properties":{"id":181,"name":"Society of Antiquaries of London Library","local_authority":"Non LA","country":"England","arcon_code":118,"address":"Society of Antiquaries of London, Burlington House Piccadilly, London, W1J 0BE","url":"https://www.sal.org.uk/library/","email":"library@sal.org.uk","local_studies_archives":"Both","notes":"Collects on all regions of Britain. Focus on antiquities, topography, architecture."},"geometry":{"type":"Point","coordinates":[-0.139324,51.508853]}},{"type":"Feature","properties":{"id":182,"name":"University of Leicester Library","local_authority":"Non LA","country":"England","arcon_code":338,"address":"University of Leicester, University Library, University Road, Leicester, LE1 7RH","url":"https://www2.le.ac.uk/library","email":"library@le.ac.uk","local_studies_archives":"Both","notes":"Collects on all historic counties of England."},"geometry":{"type":"Point","coordinates":[-1.124694574,52.62169525]}},{"type":"Feature","properties":{"id":183,"name":"Institute of Historical Research Library","local_authority":"Non LA","country":"England","arcon_code":3508,"address":"Senate House, Malet Street, London, WC1E 7HU","url":"https://www.history.ac.uk/library","email":"ihr.library@sas.ac.uk","local_studies_archives":"Local Studies","notes":"Mainly collect published primary sources. Covers Britain and Ireland."},"geometry":{"type":"Point","coordinates":[-0.128799842,51.52131956]}},{"type":"Feature","properties":{"id":184,"name":"The John Rylands Library","local_authority":"Non LA","country":"England","arcon_code":134,"address":"The John Rylands Library, 150 Deansgate, Manchester, M3 3EH","url":"https://www.library.manchester.ac.uk/rylands/","email":"uml.special-collections@manchester.ac.uk","local_studies_archives":"Both","notes":"Many collections relating to Manchester and region, particularly on business and religion."},"geometry":{"type":"Point","coordinates":[-2.249154971,53.4803847]}},{"type":"Feature","properties":{"id":185,"name":"Ahmed Iqbal Ullah Race Relations Resource Centre","local_authority":"Non LA","country":"England","arcon_code":3228,"address":"Lower Ground Floor, Central Library, St Peter’s Square, Manchester, M2 5PD","url":"http://www.racearchive.manchester.ac.uk/","email":"rrarchive@manchester.ac.uk","local_studies_archives":"Both","notes":"Focus on BAME history in Manchester. Includes 300 oral history interviews."},"geometry":{"type":"Point","coordinates":[-2.244709591,53.4781312]}},{"type":"Feature","properties":{"id":186,"name":"Bishopsgate Institute Library","local_authority":"Non LA","country":"England","arcon_code":372,"address":"Bishopsgate Institute, 230 Bishopsgate, London, EC2M 4QH","url":"https://www.bishopsgate.org.uk/Library","email":"library@bishopsgate.org.uk","local_studies_archives":"Both","notes":"Focus on London, radicalism and the counter-culture. Oral history and street photography."},"geometry":{"type":"Point","coordinates":[-0.0793179,51.5186773]}},{"type":"Feature","properties":{"id":187,"name":"Historic England Library and Archive","local_authority":"Non LA","country":"England","arcon_code":1585,"address":"Library,The Engine House,Fire Fly Avenue,Swindon,SN2 2EH","url":"https://historicengland.org.uk/images-books/archive/library/","email":"library@HistoricEngland.org.uk","local_studies_archives":"Both","notes":"60,000 print items covering the historic environment. Photographic archive: over a million photos of England's archaeology, historic buildings and social history."},"geometry":{"type":"Point","coordinates":[-1.793513845,51.5637039]}},{"type":"Feature","properties":{"id":188,"name":"University of Nottingham Manuscripts and Special Collections - the East Midlands Collection","local_authority":"Non LA","country":"England","arcon_code":159,"address":"University of Nottingham , Manuscripts and Special Collections, Kings Meadow Campus,Lenton Lane,Nottingham, NG7 2NR","url":"https://www.nottingham.ac.uk/manuscriptsandspecialcollections/collectionsindepth/eastmidlandscollection/eastmidlandscollection.aspx","email":"mss-library@nottingham.ac.uk","local_studies_archives":"Both","notes":""},"geometry":{"type":"Point","coordinates":[-1.171234,52.937903]}},{"type":"Feature","properties":{"id":189,"name":"University of Southampton - Cope Collection","local_authority":"Non LA","country":"England","arcon_code":738,"address":"Special Collections, Hartley Library, University of Southampton, Highfield, Southampton, SO17 1BJ","url":"http://library.soton.ac.uk/cope/home","email":"archives@soton.ac.uk","local_studies_archives":"Both","notes":"Focus on Southampton and Hampshire."},"geometry":{"type":"Point","coordinates":[-1.395985,50.935138]}},{"type":"Feature","properties":{"id":190,"name":"University of York - Yorkshire collection","local_authority":"Non LA","country":"England","arcon_code":2943,"address":"University Library, University of York, Heslington, York, YO10 5DD","url":"https://www.york.ac.uk/library/collections/strengths/yorkshire/","email":"lib-enquiry@york.ac.uk","local_studies_archives":"Local Studies","notes":""},"geometry":{"type":"Point","coordinates":[-1.052063864,53.9491671]}},{"type":"Feature","properties":{"id":191,"name":"University of Leeds Library, Special Collections","local_authority":"Non LA","country":"England","arcon_code":206,"address":"Brotherton Library, University of Leeds, Woodhouse Ln, Leeds, LS2 9JT","url":"https://library.leeds.ac.uk/special-collections/subject-theme/653/yorkshire","email":"specialcollections@library.leeds.ac.uk","local_studies_archives":"Both","notes":"Includes Yorkshire Archaeological & Historical Society collections."},"geometry":{"type":"Point","coordinates":[-1.553331718,53.80788745]}},{"type":"Feature","properties":{"id":192,"name":"Keele University Library - Local Collection","local_authority":"Non LA","country":"England","arcon_code":172,"address":"Library, Keele University, Keele, Staffordshire, ST5 5BG","url":"https://www.keele.ac.uk/library/specarc/collections/localcollection/","email":"library.help@keele.ac.uk","local_studies_archives":"Local Studies","notes":"5,000 books, plus pamphlets, newspapers, periodicals and directories, devoted mainly to Staffordshire, but also covering Cheshire, Derbyshire and Shropshire."},"geometry":{"type":"Point","coordinates":[-2.272272803,53.00134685]}},{"type":"Feature","properties":{"id":193,"name":"London Metropolitan University Library Special Collections","local_authority":"Non LA","country":"England","arcon_code":74,"address":"The Wash Houses, 25 Old Castle Street,London,E1 7NT","url":"https://student.londonmet.ac.uk/library/using-the-library/special-collections/trades-union-congress-library-collections","email":"tuclib@londonmet.ac.uk","local_studies_archives":"Both","notes":"Trade Union and communtiy history with focus on London. TUC Library is housed here, London Trades Council minutes 1860 - 1970; London Bookbinders and Paperworkers.  London Met Collections include: Archive of the Irish in Britain; Community Media Collection (community radio and TV in UK); East End Archive (artists); E & A Wates Archive (East London business.)"},"geometry":{"type":"Point","coordinates":[-0.074086932,51.51622208]}},{"type":"Feature","properties":{"id":194,"name":"The Queen's College, Oxford","local_authority":"Non LA","country":"England","arcon_code":468,"address":"The Queen's College, High Street, Oxford, OX1 4AW","url":"queens.ox.ac.uk","email":"library@queens.ox.ac.uk","local_studies_archives":"Both","notes":"The Bridgewater Collection: over 200 rare bibliographic items related to Cumberland and Westmorland, c. 1700-current.  The College has a historic collection with the area.  A large and important collection of heraldic visitation MSS related to various parts of England, collected and copied in the C16th and 17th."},"geometry":{"type":"Point","coordinates":[-1.250327107,51.75353785]}},{"type":"Feature","properties":{"id":195,"name":"Manchester Metropolitan University Library","local_authority":"Non LA","country":"England","arcon_code":1178,"address":"All Saints Library,Manchester,M15 6BH","url":"https://www.mmu.ac.uk/library","email":"library@mmu.ac.uk","local_studies_archives":"Both","notes":"Greater Manchester-related books, journals, pamphlets, ephemera, parish register transcripts and more, plus a 'Manchester Bibliography' card index of mainly articles, related to Manchester history from c.1975-1995. Also home to the North West Film Archive."},"geometry":{"type":"Point","coordinates":[-2.23869,53.470795]}},{"type":"Feature","properties":{"id":197,"name":"Museum of the Order of St John","local_authority":"Non LA","country":"England","arcon_code":2191,"address":"The Museum of the Order of St John, St John’s Gate, St John’s Lane,Clerkenwell, London, EC1M 4DA","url":"https://museumstjohn.org.uk/","email":"museum@sja.org.uk","local_studies_archives":"Both","notes":"The Museum of the Order of St John holds museum, library and archive collections relating to the Order of St John and St John's Ambulance. Material on Clerkenwell Priory is relevant to the history of London."},"geometry":{"type":"Point","coordinates":[-0.1025564,51.522006]}},{"type":"Feature","properties":{"id":198,"name":"Senate House Library","local_authority":"Non LA","country":"England","arcon_code":96,"address":"Senate House Library,University of London,Malet Street,London,WC1E 7HU","url":"https://london.ac.uk/senate-house-library","email":"argula.rublack@london.ac.uk","local_studies_archives":"Local Studies","notes":"Senate House Library has strong print and electronic collections of resources about British history, covering all regions of the UK.  Our research collections include academic monographs and journals but also more unusual materials such as pamphlets or the output of small press publishers. We also hold a series of local history journals covering most regions of the UK."},"geometry":{"type":"Point","coordinates":[-0.128237466,51.52080338]}}],"indexing": {"@context":"https://schema.org/","@type":"Dataset","name":"UK Local-Studies-Libraries","description":"The location of local history libraires in the UK","creator":[{"@type":"Person","name":"William Farrell","url":"https://orcid.org/0000-0002-7628-4279"}],"license":"https://creativecommons.org/licenses/by/4.0/","identifier":"https://github.com/wjbfarrell/UK-Local-Studies-Libraries/blob/main/docs/data/uklslibraries.geojson","temporalCoverage":"2022","spatialCoverage":{"@type":"Place","geoCoveredBy":{"@type":"DefinedRegion","addressCountry":"GB"}}}}
